var restartschools_old = {
"type": "FeatureCollection",
"crs": { "type": "name", "properties": { "name": "urn:ogc:def:crs:OGC:1.3:CRS84" } },
"features": [
{ "type": "Feature", "properties": { "School": "Y.E. Smith Elementary", "full_address": "2410 E Main Street, Durham, 27703", "Lat": 35.9855544, "Lng": -78.8725907 }, "geometry": { "type": "Point", "coordinates": [ -78.8725907, 35.9855544 ] } },
{ "type": "Feature", "properties": { "School": "Woodhill Elementary", "full_address": "1027 Woodhill Drive, Gastonia, 28052", "Lat": 35.278935, "Lng": -81.180546 }, "geometry": { "type": "Point", "coordinates": [ -81.180546, 35.278935 ] } },
{ "type": "Feature", "properties": { "School": "Winecoff Elementary", "full_address": "375 Winecoff Sch Road, Concord, 28027", "Lat": 35.4464301, "Lng": -80.6179398 }, "geometry": { "type": "Point", "coordinates": [ -80.6179398, 35.4464301 ] } },
{ "type": "Feature", "properties": { "School": "Davie Middle", "full_address": "4391 Hwy 158, Roanoke Rapids, 27870", "Lat": 36.4448445, "Lng": -77.7449971 }, "geometry": { "type": "Point", "coordinates": [ -77.7449971, 36.4448445 ] } },
{ "type": "Feature", "properties": { "School": "West Rown Middle", "full_address": "5925 Statesville Blvd, Salisbury, 28147", "Lat": 35.7142435, "Lng": -80.5857963 }, "geometry": { "type": "Point", "coordinates": [ -80.5857963, 35.7142435 ] } },
{ "type": "Feature", "properties": { "School": "Wendell Middle", "full_address": "3409 NC Highway 97, Wendell, 27591", "Lat": 35.8046394, "Lng": -78.3966596 }, "geometry": { "type": "Point", "coordinates": [ -78.3966596, 35.8046394 ] } },
{ "type": "Feature", "properties": { "School": "Weldon Stem High ", "full_address": "415 County Road, Weldon, 27890", "Lat": 36.413194, "Lng": -77.6108039 }, "geometry": { "type": "Point", "coordinates": [ -77.6108039, 36.413194 ] } },
{ "type": "Feature", "properties": { "School": "Weldon Elementary Global", "full_address": "805 Washington Ave, Weldon, 27890", "Lat": 36.4210276, "Lng": -77.6005263 }, "geometry": { "type": "Point", "coordinates": [ -77.6005263, 36.4210276 ] } },
{ "type": "Feature", "properties": { "School": "Walter Byers", "full_address": "1415 Hamilton St, Charlotte, 28206", "Lat": 35.2440652, "Lng": -80.8415454 }, "geometry": { "type": "Point", "coordinates": [ -80.8415454, 35.2440652 ] } },
{ "type": "Feature", "properties": { "School": "Walnut Creek Elem", "full_address": "2600 Sunnybrook Rd, Raleigh, 27610", "Lat": 35.7445814, "Lng": -78.5866304 }, "geometry": { "type": "Point", "coordinates": [ -78.5866304, 35.7445814 ] } },
{ "type": "Feature", "properties": { "School": "WM Irvin Elementary", "full_address": "1400 Gold Rush Drive, Concord, 28025", "Lat": 35.4181365, "Lng": -80.5534214 }, "geometry": { "type": "Point", "coordinates": [ -80.5534214, 35.4181365 ] } },
{ "type": "Feature", "properties": { "School": "Virginia Cross Elem", "full_address": "234 Cross School Road, Siler City, 27344", "Lat": 35.7133266, "Lng": -79.4398699 }, "geometry": { "type": "Point", "coordinates": [ -79.4398699, 35.7133266 ] } },
{ "type": "Feature", "properties": { "School": "Tuckaseegee Elementary", "full_address": "2028 Little Rock Rd, Charlotte, 28214", "Lat": 35.2496251, "Lng": -80.9415074 }, "geometry": { "type": "Point", "coordinates": [ -80.9415074, 35.2496251 ] } },
{ "type": "Feature", "properties": { "School": "Troutman Middle", "full_address": "305 Rumple St, Troutman, 28166", "Lat": 35.6975533, "Lng": -80.8855679 }, "geometry": { "type": "Point", "coordinates": [ -80.8855679, 35.6975533 ] } },
{ "type": "Feature", "properties": { "School": "Stony Creek Elementary", "full_address": "14015 Mallard Roost Rd, Charlotte, 28262", "Lat": 35.3483799, "Lng": -80.7254373 }, "geometry": { "type": "Point", "coordinates": [ -80.7254373, 35.3483799 ] } },
{ "type": "Feature", "properties": { "School": "Sterling Elementary", "full_address": "9601 China Grove Church Rd, Pineville, 28134", "Lat": 35.107476, "Lng": -80.884907 }, "geometry": { "type": "Point", "coordinates": [ -80.884907, 35.107476 ] } },
{ "type": "Feature", "properties": { "School": "Statesville Middle", "full_address": "321 Clegg St, Statesville, 28677", "Lat": 35.7870302, "Lng": -80.871668 }, "geometry": { "type": "Point", "coordinates": [ -80.871668, 35.7870302 ] } },
{ "type": "Feature", "properties": { "School": "Statesville High", "full_address": "474 N Center St, Statesville, 28677", "Lat": 35.7935193, "Lng": -80.8918139 }, "geometry": { "type": "Point", "coordinates": [ -80.8918139, 35.7935193 ] } },
{ "type": "Feature", "properties": { "School": "Southwest Middle", "full_address": "1 Roadrunner Drive, Gastonia, 28052", "Lat": 35.2311234, "Lng": -81.2077268 }, "geometry": { "type": "Point", "coordinates": [ -81.2077268, 35.2311234 ] } },
{ "type": "Feature", "properties": { "School": "Southern School of Energy and Sustainability", "full_address": "800 Clayton Road, Durham, 27703", "Lat": 36.0000791, "Lng": -78.829234 }, "geometry": { "type": "Point", "coordinates": [ -78.829234, 36.0000791 ] } },
{ "type": "Feature", "properties": { "School": "Southeast Middle", "full_address": "1570 Peeler Rd, Salisbury, 28146", "Lat": 35.609832, "Lng": -80.508762 }, "geometry": { "type": "Point", "coordinates": [ -80.508762, 35.609832 ] } },
{ "type": "Feature", "properties": { "School": "Siler City Elem", "full_address": "671 Ellington Road, Siler City, 27344", "Lat": 35.7271379, "Lng": -79.492701 }, "geometry": { "type": "Point", "coordinates": [ -79.492701, 35.7271379 ] } },
{ "type": "Feature", "properties": { "School": "Githens Middle", "full_address": "4800 Chapel Hill Road, Durham, 27707", "Lat": 35.9684387, "Lng": -78.9399287 }, "geometry": { "type": "Point", "coordinates": [ -78.9399287, 35.9684387 ] } },
{ "type": "Feature", "properties": { "School": "Sherwood Elementary", "full_address": "1744 Dixon Road, Gastonia, 28054", "Lat": 35.2493179, "Lng": -81.1547487 }, "geometry": { "type": "Point", "coordinates": [ -81.1547487, 35.2493179 ] } },
{ "type": "Feature", "properties": { "School": "Sedgefield Elementary", "full_address": "715 Hartford Ave, Charlotte, 28209", "Lat": 35.1901109, "Lng": -80.8635861 }, "geometry": { "type": "Point", "coordinates": [ -80.8635861, 35.1901109 ] } },
{ "type": "Feature", "properties": { "School": "Scotland Neck Elementary", "full_address": "901 Junior High School Road, Scotland Neck, 27874", "Lat": 36.1268456, "Lng": -77.425904 }, "geometry": { "type": "Point", "coordinates": [ -77.425904, 36.1268456 ] } },
{ "type": "Feature", "properties": { "School": "Sandy Ridge Elementary", "full_address": "1417 Old Oxford Highway, Durham, 27704", "Lat": 36.0577148, "Lng": -78.871103 }, "geometry": { "type": "Point", "coordinates": [ -78.871103, 36.0577148 ] } },
{ "type": "Feature", "properties": { "School": "Royal Oaks Elementary", "full_address": "608 Dakota Street, Kannapolis, 28083", "Lat": 35.4665403, "Lng": -80.6129844 }, "geometry": { "type": "Point", "coordinates": [ -80.6129844, 35.4665403 ] } },
{ "type": "Feature", "properties": { "School": "Roger Bell Elementary", "full_address": "804 Fontana Boulevard, Havelock, 28532", "Lat": 34.8810788, "Lng": -76.8807733 }, "geometry": { "type": "Point", "coordinates": [ -76.8807733, 34.8810788 ] } },
{ "type": "Feature", "properties": { "School": "Rocky River Elementary", "full_address": "5454 Rocky River Road, Concord, 28025", "Lat": 35.3422869, "Lng": -80.5980388 }, "geometry": { "type": "Point", "coordinates": [ -80.5980388, 35.3422869 ] } },
{ "type": "Feature", "properties": { "School": "River Road Middle", "full_address": "1701 River Road, Elizabeth City, 27909", "Lat": 36.275593, "Lng": -76.197703 }, "geometry": { "type": "Point", "coordinates": [ -76.197703, 36.275593 ] } },
{ "type": "Feature", "properties": { "School": "Richlands Elementary", "full_address": "110 E Foy Street, Richlands, 28574", "Lat": 34.8999809, "Lng": -77.540591 }, "geometry": { "type": "Point", "coordinates": [ -77.540591, 34.8999809 ] } },
{ "type": "Feature", "properties": { "School": "Reid Park", "full_address": "4108 W Tyvola Rd, Charlotte, 28208", "Lat": 35.204946, "Lng": -80.90523 }, "geometry": { "type": "Point", "coordinates": [ -80.90523, 35.204946 ] } },
{ "type": "Feature", "properties": { "School": "Princeville Elem", "full_address": "710 Panola Street, Tarboro, 27886", "Lat": 35.9017442, "Lng": -77.5328909 }, "geometry": { "type": "Point", "coordinates": [ -77.5328909, 35.9017442 ] } },
{ "type": "Feature", "properties": { "School": "Poe GT\/AIG Basics Magnet El", "full_address": "400 Peyton St, Raleigh, 27610", "Lat": 35.7738095, "Lng": -78.6056869 }, "geometry": { "type": "Point", "coordinates": [ -78.6056869, 35.7738095 ] } },
{ "type": "Feature", "properties": { "School": "Pines Elementary", "full_address": "3177 US Hwy 64E, Plymouth, 27962", "Lat": 35.8714531, "Lng": -76.6944655 }, "geometry": { "type": "Point", "coordinates": [ -76.6944655, 35.8714531 ] } },
{ "type": "Feature", "properties": { "School": "Phillips Middle", "full_address": "4371 Battleboro-Leggett Road, Battleboro, 27809", "Lat": 36.001686, "Lng": -77.685968 }, "geometry": { "type": "Point", "coordinates": [ -77.685968, 36.001686 ] } },
{ "type": "Feature", "properties": { "School": "Pasquotank Elementary", "full_address": "1407 Peartree Rd, Elizabeth City, 27909", "Lat": 36.2835366, "Lng": -76.2243629 }, "geometry": { "type": "Point", "coordinates": [ -76.2243629, 36.2835366 ] } },
{ "type": "Feature", "properties": { "School": "Oaks Road Elementary ", "full_address": "2811 Oaks Road, New Bern, 28560", "Lat": 35.1277177, "Lng": -77.0655386 }, "geometry": { "type": "Point", "coordinates": [ -77.0655386, 35.1277177 ] } },
{ "type": "Feature", "properties": { "School": "Northwest High", "full_address": "8492 Hwy 48, Littleton, 27850", "Lat": 36.3866622, "Lng": -77.7858296 }, "geometry": { "type": "Point", "coordinates": [ -77.7858296, 36.3866622 ] } },
{ "type": "Feature", "properties": { "School": "Northwest Elementary", "full_address": "1471 Holland Road, Greenville, 27834", "Lat": 35.7380899, "Lng": -77.478337 }, "geometry": { "type": "Point", "coordinates": [ -77.478337, 35.7380899 ] } },
{ "type": "Feature", "properties": { "School": "Northampton County High", "full_address": "152 Hurricane Drive, Gaston, 27832", "Lat": 36.5108559, "Lng": -77.652447 }, "geometry": { "type": "Point", "coordinates": [ -77.652447, 36.5108559 ] } },
{ "type": "Feature", "properties": { "School": "North Rowan High", "full_address": "300 North Whitehead Ave, Spencer, 28159", "Lat": 35.6971588, "Lng": -80.429617 }, "geometry": { "type": "Point", "coordinates": [ -80.429617, 35.6971588 ] } },
{ "type": "Feature", "properties": { "School": "North Rowan Elementary", "full_address": "600 Charles St, Spencer, 28159", "Lat": 35.7026082, "Lng": -80.4282616 }, "geometry": { "type": "Point", "coordinates": [ -80.4282616, 35.7026082 ] } },
{ "type": "Feature", "properties": { "School": "North Johnston Middle", "full_address": "435 Oil Company Road, Micro, 27555", "Lat": 35.5630328, "Lng": -78.2093694 }, "geometry": { "type": "Point", "coordinates": [ -78.2093694, 35.5630328 ] } },
{ "type": "Feature", "properties": { "School": "North Edgecombe High", "full_address": "7589 NC 33-NW, Tarboro, 27886", "Lat": 35.989652, "Lng": -77.5835479 }, "geometry": { "type": "Point", "coordinates": [ -77.5835479, 35.989652 ] } },
{ "type": "Feature", "properties": { "School": "Newell Elementary", "full_address": "325 Rocky River Road, West, Charlotte, 28213", "Lat": 35.286753, "Lng": -80.7540378 }, "geometry": { "type": "Point", "coordinates": [ -80.7540378, 35.286753 ] } },
{ "type": "Feature", "properties": { "School": "NB Mills", "full_address": "1410 Pearl St, Statesville, 28677", "Lat": 35.7881576, "Lng": -80.9112357 }, "geometry": { "type": "Point", "coordinates": [ -80.9112357, 35.7881576 ] } },
{ "type": "Feature", "properties": { "School": "Monroe Middle", "full_address": "601 E Sunset Drive, Monroe, 28112", "Lat": 34.9736453, "Lng": -80.5398253 }, "geometry": { "type": "Point", "coordinates": [ -80.5398253, 34.9736453 ] } },
{ "type": "Feature", "properties": { "School": "Millbrook Elementary", "full_address": "1520 E Millbrook Rd, Raleigh, 27609", "Lat": 35.848788, "Lng": -78.61055 }, "geometry": { "type": "Point", "coordinates": [ -78.61055, 35.848788 ] } },
{ "type": "Feature", "properties": { "School": "Lowe's Grove Middle", "full_address": "4418 S Alston Avenue, Durham, 27713", "Lat": 35.9045436, "Lng": -78.8912966 }, "geometry": { "type": "Point", "coordinates": [ -78.8912966, 35.9045436 ] } },
{ "type": "Feature", "properties": { "School": "Landis Elementary", "full_address": "801 West Ryder Ave, Landis, 28088", "Lat": 35.554546, "Lng": -80.621028 }, "geometry": { "type": "Point", "coordinates": [ -80.621028, 35.554546 ] } },
{ "type": "Feature", "properties": { "School": "Lakewood Elementary", "full_address": "2520 Vesson Avenue, Durham, 27707", "Lat": 35.9830841, "Lng": -78.9357817 }, "geometry": { "type": "Point", "coordinates": [ -78.9357817, 35.9830841 ] } },
{ "type": "Feature", "properties": { "School": "Knollwood Elementary", "full_address": "3075 Shue Rd, Salisbury, 28147", "Lat": 35.615963, "Lng": -80.57549 }, "geometry": { "type": "Point", "coordinates": [ -80.57549, 35.615963 ] } },
{ "type": "Feature", "properties": { "School": "Kannapolis Middle", "full_address": "1445 Oakwood Avenue, Kannapolis, 28081", "Lat": 35.467353, "Lng": -80.6387447 }, "geometry": { "type": "Point", "coordinates": [ -80.6387447, 35.467353 ] } },
{ "type": "Feature", "properties": { "School": "James Love Elementary", "full_address": "309 James Love Road, Shelby, 28152", "Lat": 35.2652188, "Lng": -81.5673132 }, "geometry": { "type": "Point", "coordinates": [ -81.5673132, 35.2652188 ] } },
{ "type": "Feature", "properties": { "School": "Shepard Middle", "full_address": "2401 Dakota Street, Durham, 27707", "Lat": 35.9654408, "Lng": -78.8997755 }, "geometry": { "type": "Point", "coordinates": [ -78.8997755, 35.9654408 ] } },
{ "type": "Feature", "properties": { "School": "Hurley Elementary", "full_address": "625 Hurley School Rd, Salisbury, 28147", "Lat": 35.6995689, "Lng": -80.55868 }, "geometry": { "type": "Point", "coordinates": [ -80.55868, 35.6995689 ] } },
{ "type": "Feature", "properties": { "School": "Hungtowne Farms El", "full_address": "2520 Huntingtowne Farms Ln, Charlotte, 28210", "Lat": 35.1327465, "Lng": -80.8600699 }, "geometry": { "type": "Point", "coordinates": [ -80.8600699, 35.1327465 ] } },
{ "type": "Feature", "properties": { "School": "Hunter Huss High", "full_address": "1518 Edgefield Avenue, Gastonia, 28052", "Lat": 35.2406312, "Lng": -81.2058749 }, "geometry": { "type": "Point", "coordinates": [ -81.2058749, 35.2406312 ] } },
{ "type": "Feature", "properties": { "School": "Haw River Elementary", "full_address": "701 E Main Street, Haw River, 27258", "Lat": 36.092396, "Lng": -79.358827 }, "geometry": { "type": "Point", "coordinates": [ -79.358827, 36.092396 ] } },
{ "type": "Feature", "properties": { "School": "H D Isenberg Elementary", "full_address": "2800 Jake Alexander Blvd N, Salisbury, 28147", "Lat": 35.7011501, "Lng": -80.5037595 }, "geometry": { "type": "Point", "coordinates": [ -80.5037595, 35.7011501 ] } },
{ "type": "Feature", "properties": { "School": "Greenway Park Elementary", "full_address": "8301 Monroe Rd, Charlotte, 28212", "Lat": 35.157393, "Lng": -80.745946 }, "geometry": { "type": "Point", "coordinates": [ -80.745946, 35.157393 ] } },
{ "type": "Feature", "properties": { "School": "Graham Elementary", "full_address": "1100 Blanton Street, Shelby, 28150", "Lat": 35.288762, "Lng": -81.558864 }, "geometry": { "type": "Point", "coordinates": [ -81.558864, 35.288762 ] } },
{ "type": "Feature", "properties": { "School": "Goldsboro High", "full_address": "901 E Beech Street, Goldsboro, 27530", "Lat": 35.3871738, "Lng": -77.9796393 }, "geometry": { "type": "Point", "coordinates": [ -77.9796393, 35.3871738 ] } },
{ "type": "Feature", "properties": { "School": "Glenn Elementary", "full_address": "2415 E Geer Street, Durham, 27704", "Lat": 36.029499, "Lng": -78.837487 }, "geometry": { "type": "Point", "coordinates": [ -78.837487, 36.029499 ] } },
{ "type": "Feature", "properties": { "School": "Fox Road Magnet Elementary", "full_address": "7101 Fox Rd, Raleigh, 27616", "Lat": 35.8730807, "Lng": -78.5558904 }, "geometry": { "type": "Point", "coordinates": [ -78.5558904, 35.8730807 ] } },
{ "type": "Feature", "properties": { "School": "Fayetteville Street Elementary", "full_address": "2905 Fayetteville Street, Durham, 27707", "Lat": 35.9644701, "Lng": -78.9055786 }, "geometry": { "type": "Point", "coordinates": [ -78.9055786, 35.9644701 ] } },
{ "type": "Feature", "properties": { "School": "Falkland Elementary", "full_address": "503 NC 121, Greenville, 27834", "Lat": 35.669671, "Lng": -77.486723 }, "geometry": { "type": "Point", "coordinates": [ -77.486723, 35.669671 ] } },
{ "type": "Feature", "properties": { "School": "Everetts Elementary", "full_address": "4391 Highway 158, Roanoke Rapids, 27870", "Lat": 36.4448445, "Lng": -77.7449971 }, "geometry": { "type": "Point", "coordinates": [ -77.7449971, 36.4448445 ] } },
{ "type": "Feature", "properties": { "School": "Eno Valley Elementary", "full_address": "117 Milton Road, Durham, 27712", "Lat": 36.0851774, "Lng": -78.912153 }, "geometry": { "type": "Point", "coordinates": [ -78.912153, 36.0851774 ] } },
{ "type": "Feature", "properties": { "School": "Koontz Elementary", "full_address": "685 East Ritchie Rd, Salisbury, 28146", "Lat": 35.6241264, "Lng": -80.4963121 }, "geometry": { "type": "Point", "coordinates": [ -80.4963121, 35.6241264 ] } },
{ "type": "Feature", "properties": { "School": "Sadler Elementary", "full_address": "3950 West Franklin Boulevard, Gastonia, 28052", "Lat": 35.258803, "Lng": -81.2595319 }, "geometry": { "type": "Point", "coordinates": [ -81.2595319, 35.258803 ] } },
{ "type": "Feature", "properties": { "School": "East Wake Middle", "full_address": "2700 Old Milburnie Rd, Raleigh, 27604", "Lat": 35.825962, "Lng": -78.5021162 }, "geometry": { "type": "Point", "coordinates": [ -78.5021162, 35.825962 ] } },
{ "type": "Feature", "properties": { "School": "East Union Middle", "full_address": "6010 W Marshville Blvd, Marshville, 28103", "Lat": 34.9835342, "Lng": -80.3838416 }, "geometry": { "type": "Point", "coordinates": [ -80.3838416, 34.9835342 ] } },
{ "type": "Feature", "properties": { "School": "East Millbrook Middle", "full_address": "3801 Spring Forest Rd, Raleigh, 27616", "Lat": 35.8561484, "Lng": -78.5762465 }, "geometry": { "type": "Point", "coordinates": [ -78.5762465, 35.8561484 ] } },
{ "type": "Feature", "properties": { "School": "East Garner Magnet Middle", "full_address": "6301 Jones Sausage Rd, Garner, 27529", "Lat": 35.7017795, "Lng": -78.5856291 }, "geometry": { "type": "Point", "coordinates": [ -78.5856291, 35.7017795 ] } },
{ "type": "Feature", "properties": { "School": "East Garner Elementary", "full_address": "5545 Jones Sausage Road, Garner, 27529", "Lat": 35.7076373, "Lng": -78.5871487 }, "geometry": { "type": "Point", "coordinates": [ -78.5871487, 35.7076373 ] } },
{ "type": "Feature", "properties": { "School": "E.M. Rollins Ele", "full_address": "1600 S Garnett St, Henderson, 27536", "Lat": 36.3200064, "Lng": -78.4156589 }, "geometry": { "type": "Point", "coordinates": [ -78.4156589, 36.3200064 ] } },
{ "type": "Feature", "properties": { "School": "Lucas Middle", "full_address": "913 9th Street, Durham, 27705", "Lat": 36.012948, "Lng": -78.922488 }, "geometry": { "type": "Point", "coordinates": [ -78.922488, 36.012948 ] } },
{ "type": "Feature", "properties": { "School": "E.K. Powe Elementary", "full_address": "913 9th Street, Durham, 27705", "Lat": 36.012948, "Lng": -78.922488 }, "geometry": { "type": "Point", "coordinates": [ -78.922488, 36.012948 ] } },
{ "type": "Feature", "properties": { "School": "Druid Hills", "full_address": "2801 Lucena Ave, Charlotte, 28206", "Lat": 35.2571269, "Lng": -80.824366 }, "geometry": { "type": "Point", "coordinates": [ -80.824366, 35.2571269 ] } },
{ "type": "Feature", "properties": { "School": "Creswell High", "full_address": "115 West Middle Street, Creswell, 27928", "Lat": 35.867822, "Lng": -76.3943246 }, "geometry": { "type": "Point", "coordinates": [ -76.3943246, 35.867822 ] } },
{ "type": "Feature", "properties": { "School": "Corriher-Lipe Middle", "full_address": "214 West Rice St, Landis, 28088", "Lat": 35.5461247, "Lng": -80.6153319 }, "geometry": { "type": "Point", "coordinates": [ -80.6153319, 35.5461247 ] } },
{ "type": "Feature", "properties": { "School": "Cooper Elementary", "full_address": "849 North Mial St, Clayton, 27520", "Lat": 35.6559366, "Lng": -78.4512103 }, "geometry": { "type": "Point", "coordinates": [ -78.4512103, 35.6559366 ] } },
{ "type": "Feature", "properties": { "School": "Cook Elementary", "full_address": "920 11th Street NW, Winston-Salem, 27105", "Lat": 36.1078495, "Lng": -80.2568315 }, "geometry": { "type": "Point", "coordinates": [ -80.2568315, 36.1078495 ] } },
{ "type": "Feature", "properties": { "School": "Concord Middle", "full_address": "1500 Gold Rush Drive, Concord, 28025", "Lat": 35.4220824, "Lng": -80.5525091 }, "geometry": { "type": "Point", "coordinates": [ -80.5525091, 35.4220824 ] } },
{ "type": "Feature", "properties": { "School": "Coker-Wimberly", "full_address": "1619 NC 97 West, Battleboro, 27809", "Lat": 35.9769077, "Lng": -77.6042147 }, "geometry": { "type": "Point", "coordinates": [ -77.6042147, 35.9769077 ] } },
{ "type": "Feature", "properties": { "School": "Clyde Erwin Elementary", "full_address": "323 New River Dr, Jacksonville, 28540", "Lat": 34.755764, "Lng": -77.4125275 }, "geometry": { "type": "Point", "coordinates": [ -77.4125275, 34.755764 ] } },
{ "type": "Feature", "properties": { "School": "China Grove Elementary", "full_address": "514 South Franklin St, China Grove, 28023", "Lat": 35.5670575, "Lng": -80.5856545 }, "geometry": { "type": "Point", "coordinates": [ -80.5856545, 35.5670575 ] } },
{ "type": "Feature", "properties": { "School": "Erwin Middle", "full_address": "170 St Lukes Church Rd, Salisbury, 28146", "Lat": 35.5946599, "Lng": -80.4245773 }, "geometry": { "type": "Point", "coordinates": [ -80.4245773, 35.5946599 ] } },
{ "type": "Feature", "properties": { "School": "Carroll T Overton Elementary", "full_address": "1825 Park Rd W, Salisbury, 28144", "Lat": 35.6895489, "Lng": -80.4741575 }, "geometry": { "type": "Point", "coordinates": [ -80.4741575, 35.6895489 ] } },
{ "type": "Feature", "properties": { "School": "Carrol Magnet Middle", "full_address": "4520 Six Forks Rd, Raleigh, 27609", "Lat": 35.8430604, "Lng": -78.6418017 }, "geometry": { "type": "Point", "coordinates": [ -78.6418017, 35.8430604 ] } },
{ "type": "Feature", "properties": { "School": "Bugg Elementary", "full_address": "825 Cooper Rd, Raleigh, 27610", "Lat": 35.7657075, "Lng": -78.5860351 }, "geometry": { "type": "Point", "coordinates": [ -78.5860351, 35.7657075 ] } },
{ "type": "Feature", "properties": { "School": "Brogden Middle", "full_address": "1001 Leon Street, Durham, 27704", "Lat": 36.0247847, "Lng": -78.908729 }, "geometry": { "type": "Point", "coordinates": [ -78.908729, 36.0247847 ] } },
{ "type": "Feature", "properties": { "School": "Billingsville Elementary", "full_address": "124 Skyland Ave, Charlotte, 28205", "Lat": 35.1968477, "Lng": -80.8100428 }, "geometry": { "type": "Point", "coordinates": [ -80.8100428, 35.1968477 ] } },
{ "type": "Feature", "properties": { "School": "Bethesda Elementary", "full_address": "2009 S Miami Boulevard, Durham, 27703", "Lat": 35.9401449, "Lng": -78.8378281 }, "geometry": { "type": "Point", "coordinates": [ -78.8378281, 35.9401449 ] } },
{ "type": "Feature", "properties": { "School": "Bertie High School", "full_address": "716 US Hwy 13 North, Windsor, 27983", "Lat": 35.9427568, "Lng": -76.9602511 }, "geometry": { "type": "Point", "coordinates": [ -76.9602511, 35.9427568 ] } },
{ "type": "Feature", "properties": { "School": "Bessemer City Central El", "full_address": "310 Eagle Road, Belmont, 28012", "Lat": 35.2408792, "Lng": -81.0505928 }, "geometry": { "type": "Point", "coordinates": [ -81.0505928, 35.2408792 ] } },
{ "type": "Feature", "properties": { "School": "Barwell Road Elem", "full_address": "3925 Barwell Road, Raleigh, 27610", "Lat": 35.7318863, "Lng": -78.5509291 }, "geometry": { "type": "Point", "coordinates": [ -78.5509291, 35.7318863 ] } },
{ "type": "Feature", "properties": { "School": "Ashley Park", "full_address": "2401 Belfast Dr, Charlotte, 28208", "Lat": 35.232769, "Lng": -80.891217 }, "geometry": { "type": "Point", "coordinates": [ -80.891217, 35.232769 ] } },
{ "type": "Feature", "properties": { "School": "Allenbrook Elementary", "full_address": "1430 Allenbrook Dr, Charlotte, 28208", "Lat": 35.261705, "Lng": -80.9151119 }, "geometry": { "type": "Point", "coordinates": [ -80.9151119, 35.261705 ] } },
{ "type": "Feature", "properties": { "School": "A.L. Brown High", "full_address": "415 E 1st Street, Kannapolis, 28083", "Lat": 35.4961699, "Lng": -80.6185775 }, "geometry": { "type": "Point", "coordinates": [ -80.6185775, 35.4961699 ] } }
]
}
